{
  "type": "FeatureCollection",
  "features": [
    {
      "type": "Feature",
      "properties": {
        "name": "筑前深江駅",
        "type": 27,
        "id": "0001"
      },
      "geometry": {
        "type": "Point",
        "coordinates": [
          130.139306,
          33.514917
        ]
      }
    },
    {
      "type": "Feature",
      "properties": {
        "name": "二丈岳",
        "type": 4,
        "id": "0002"
      },
      "geometry": {
        "type": "Point",
        "coordinates": [
          130.126278,
          33.488472
        ]
      }
    },
    {
      "type": "Feature",
      "properties": {
        "name": "真名子登山口",
        "type": 7,
        "id": "0003"
      },
      "geometry": {
        "type": "Point",
        "coordinates": [
          130.115722,
          33.484639
        ]
      }
    },
    {
      "type": "Feature",
      "properties": {
        "name": "女岳北登山口",
        "type": 7,
        "id": "0004"
      },
      "geometry": {
        "type": "Point",
        "coordinates": [
          130.121083,
          33.478222
        ]
      }
    },
    {
      "type": "Feature",
      "properties": {
        "name": "女岳",
        "type": 4,
        "id": "0005"
      },
      "geometry": {
        "type": "Point",
        "coordinates": [
          130.115861,
          33.475
        ]
      }
    },
    {
      "type": "Feature",
      "properties": {
        "name": "加茂神社",
        "type": 29,
        "id": "0006"
      },
      "geometry": {
        "type": "Point",
        "coordinates": [
          130.113806,
          33.487444
        ]
      }
    },
    {
      "type": "Feature",
      "properties": {
        "name": "加茂ゆらりんこ橋登山口",
        "type": 7,
        "id": "0007"
      },
      "geometry": {
        "type": "Point",
        "coordinates": [
          130.102972,
          33.49325
        ]
      }
    },
    {
      "type": "Feature",
      "properties": {
        "name": "大入駅",
        "type": 27,
        "id": "0008"
      },
      "geometry": {
        "type": "Point",
        "coordinates": [
          130.105417,
          33.509
        ]
      }
    }
  ]
}