{
  "type": "FeatureCollection",
  "features": [
    {
      "type": "Feature",
      "properties": {
        "name": "原田駅",
        "type": 27,
        "id": "0001",
        "stay_times": [
          {
            "start": "2022-04-04T12:31:44+09:00",
            "end": "2022-04-04T12:36:02+09:00"
          }
        ]
      },
      "geometry": {
        "type": "Point",
        "coordinates": [
          130.539333,
          33.451139
        ]
      }
    },
    {
      "type": "Feature",
      "properties": {
        "name": "基山登山口",
        "type": 7,
        "id": "0002",
        "stay_times": [
          {
            "start": "2022-04-04T13:11:00+09:00",
            "end": "2022-04-04T13:13:20+09:00"
          }
        ]
      },
      "geometry": {
        "type": "Point",
        "coordinates": [
          130.520944,
          33.448778
        ]
      }
    },
    {
      "type": "Feature",
      "properties": {
        "name": "東北門跡",
        "type": 38,
        "id": "0003",
        "stay_times": [
          {
            "start": "2022-04-04T13:37:31+09:00",
            "end": "2022-04-04T13:40:52+09:00"
          }
        ]
      },
      "geometry": {
        "type": "Point",
        "coordinates": [
          130.515111,
          33.447917
        ]
      }
    },
    {
      "type": "Feature",
      "properties": {
        "name": "北峰（北帝）",
        "type": 4,
        "id": "0004",
        "stay_times": [
          {
            "start": "2022-04-04T14:04:39+09:00",
            "end": "2022-04-04T14:18:25+09:00"
          }
        ]
      },
      "geometry": {
        "type": "Point",
        "coordinates": [
          130.511056,
          33.449083
        ]
      }
    },
    {
      "type": "Feature",
      "properties": {
        "name": "基山",
        "type": 4,
        "id": "0005",
        "stay_times": [
          {
            "start": "2022-04-04T14:38:21+09:00",
            "end": "2022-04-04T15:04:16+09:00"
          },
          {
            "start": "2022-04-04T15:16:57+09:00",
            "end": "2022-04-04T15:18:46+09:00"
          }
        ]
      },
      "geometry": {
        "type": "Point",
        "coordinates": [
          130.510194,
          33.442722
        ]
      }
    },
    {
      "type": "Feature",
      "properties": {
        "name": "水門跡登山口",
        "type": 7,
        "id": "0006",
        "stay_times": [
          {
            "start": "2022-04-04T15:44:05+09:00",
            "end": "2022-04-04T15:57:54+09:00"
          }
        ]
      },
      "geometry": {
        "type": "Point",
        "coordinates": [
          130.516194,
          33.440806
        ]
      }
    },
    {
      "type": "Feature",
      "properties": {
        "name": "基山駅",
        "type": 27,
        "id": "0007",
        "stay_times": [
          {
            "start": "2022-04-04T16:45:15+09:00",
            "end": "2022-04-04T16:47:10+09:00"
          }
        ]
      },
      "geometry": {
        "type": "Point",
        "coordinates": [
          130.532333,
          33.421222
        ]
      }
    }
  ]
}