{
  "type": "FeatureCollection",
  "features": [
    {
      "type": "Feature",
      "properties": {
        "name": "福吉駅",
        "type": 27,
        "id": "0001",
        "stay_times": [
          {
            "start": "2022-03-08T09:39:05+09:00",
            "end": "2022-03-08T09:39:23+09:00"
          },
          {
            "start": "2022-03-08T15:42:48+09:00",
            "end": "2022-03-08T15:46:12+09:00"
          }
        ]
      },
      "geometry": {
        "type": "Point",
        "coordinates": [
          130.079861,
          33.501639
        ]
      }
    },
    {
      "type": "Feature",
      "properties": {
        "name": "中村登山口",
        "type": 7,
        "id": "0002",
        "stay_times": [
          {
            "start": "2022-03-08T09:56:38+09:00",
            "end": "2022-03-08T09:57:23+09:00"
          },
          {
            "start": "2022-03-08T15:25:58+09:00",
            "end": "2022-03-08T15:28:11+09:00"
          }
        ]
      },
      "geometry": {
        "type": "Point",
        "coordinates": [
          130.074139,
          33.491611
        ]
      }
    },
    {
      "type": "Feature",
      "properties": {
        "name": "十坊山",
        "type": 4,
        "id": "0003",
        "stay_times": [
          {
            "start": "2022-03-08T11:25:15+09:00",
            "end": "2022-03-08T12:45:32+09:00"
          }
        ]
      },
      "geometry": {
        "type": "Point",
        "coordinates": [
          130.068139,
          33.472611
        ]
      }
    },
    {
      "type": "Feature",
      "properties": {
        "name": "白木峠",
        "type": 8,
        "id": "0004",
        "stay_times": [
          {
            "start": "2022-03-08T13:16:14+09:00",
            "end": "2022-03-08T13:19:59+09:00"
          }
        ]
      },
      "geometry": {
        "type": "Point",
        "coordinates": [
          130.077083,
          33.469861
        ]
      }
    },
    {
      "type": "Feature",
      "properties": {
        "name": "まむしの湯",
        "type": 34,
        "id": "0005",
        "stay_times": [
          {
            "start": "2022-03-08T14:20:15+09:00",
            "end": "2022-03-08T15:22:56+09:00"
          }
        ]
      },
      "geometry": {
        "type": "Point",
        "coordinates": [
          130.074861,
          33.489472
        ]
      }
    }
  ]
}