{
  "type": "FeatureCollection",
  "features": [
    {
      "type": "Feature",
      "properties": {
        "name": "天拝山歴史自然公園",
        "type": 31,
        "id": "0001"
      },
      "geometry": {
        "type": "Point",
        "coordinates": [
          130.510222,
          33.489083
        ]
      }
    },
    {
      "type": "Feature",
      "properties": {
        "name": "天拝山登山口",
        "type": 7,
        "id": "0002"
      },
      "geometry": {
        "type": "Point",
        "coordinates": [
          130.509056,
          33.489167
        ]
      }
    },
    {
      "type": "Feature",
      "properties": {
        "name": "天拝山",
        "type": 4,
        "id": "0003"
      },
      "geometry": {
        "type": "Point",
        "coordinates": [
          130.506139,
          33.481778
        ]
      }
    },
    {
      "type": "Feature",
      "properties": {
        "name": "奥天拝",
        "type": 4,
        "id": "0004"
      },
      "geometry": {
        "type": "Point",
        "coordinates": [
          130.500389,
          33.48075
        ]
      }
    },
    {
      "type": "Feature",
      "properties": {
        "name": "大佐野山",
        "type": 4,
        "id": "0005"
      },
      "geometry": {
        "type": "Point",
        "coordinates": [
          130.490056,
          33.4705
        ]
      }
    },
    {
      "type": "Feature",
      "properties": {
        "name": "前黒金山",
        "type": 4,
        "id": "0006"
      },
      "geometry": {
        "type": "Point",
        "coordinates": [
          130.481944,
          33.464444
        ]
      }
    },
    {
      "type": "Feature",
      "properties": {
        "name": "黒金山",
        "type": 4,
        "id": "0007"
      },
      "geometry": {
        "type": "Point",
        "coordinates": [
          130.476389,
          33.465917
        ]
      }
    },
    {
      "type": "Feature",
      "properties": {
        "name": "三市町山",
        "type": 4,
        "id": "0008"
      },
      "geometry": {
        "type": "Point",
        "coordinates": [
          130.466333,
          33.466472
        ]
      }
    },
    {
      "type": "Feature",
      "properties": {
        "name": "髙地山",
        "type": 4,
        "id": "0009"
      },
      "geometry": {
        "type": "Point",
        "coordinates": [
          130.464417,
          33.464861
        ]
      }
    },
    {
      "type": "Feature",
      "properties": {
        "name": "茨山",
        "type": 4,
        "id": "0010"
      },
      "geometry": {
        "type": "Point",
        "coordinates": [
          130.465167,
          33.461889
        ]
      }
    },
    {
      "type": "Feature",
      "properties": {
        "name": "三角山",
        "type": 4,
        "id": "0011"
      },
      "geometry": {
        "type": "Point",
        "coordinates": [
          130.468278,
          33.460694
        ]
      }
    },
    {
      "type": "Feature",
      "properties": {
        "name": "牛頸山",
        "type": 4,
        "id": "0012"
      },
      "geometry": {
        "type": "Point",
        "coordinates": [
          130.468472,
          33.471556
        ]
      }
    },
    {
      "type": "Feature",
      "properties": {
        "name": "牛頸山入口",
        "type": 7,
        "id": "0013"
      },
      "geometry": {
        "type": "Point",
        "coordinates": [
          130.481611,
          33.480167
        ]
      }
    },
    {
      "type": "Feature",
      "properties": {
        "name": "大野城いこいの森水辺公園",
        "type": 31,
        "id": "0014"
      },
      "geometry": {
        "type": "Point",
        "coordinates": [
          130.481833,
          33.481028
        ]
      }
    },
    {
      "type": "Feature",
      "properties": {
        "name": "大佐野山入口",
        "type": 7,
        "id": "0015"
      },
      "geometry": {
        "type": "Point",
        "coordinates": [
          130.482306,
          33.486472
        ]
      }
    },
    {
      "type": "Feature",
      "properties": {
        "name": "南山手団地バス停",
        "type": 26,
        "id": "0016"
      },
      "geometry": {
        "type": "Point",
        "coordinates": [
          130.480667,
          33.488472
        ]
      }
    }
  ]
}